ID,Name,Lat,Lng,
1,Basel,47.55960,7.58858,
2,Moscow,55.97360,37.41250,
3,Tokyo,35.54940,139.77980,
4,Antananarivo,18.79930,47.47530,
5,Buenos Aires,34.81500,58.53480,
6,Macau,22.15780,113.57640,
7,Bangui,4.39610,18.52030,
8,Ulaanbaatar,47.84080,106.77010,
9,Seoul,37.46020,126.44070,
10,Berlin,52.55880,13.28840,
