ID,Name,Lat,Lng,
A,Basel,47.55960,7.58858,
B,Moscow,55.97360,37.41250,
C,Tokyo,35.54940,139.77980,
D,Antananarivo,18.79930,47.47530,
E,Buenos Aires,34.81500,58.53480,
F,Macau,22.15780,113.57640,
G,Bangui,4.39610,18.52030,
H,Ulaanbaatar,47.84080,106.77010,
I,Seoul,37.46020,126.44070,
J,Berlin,52.55880,13.28840,
